{"type": "FeatureCollection", "features": [{"type": "Feature", "geometry": {"type": "Point", "coordinates": [18.2323, 46.0727]}, "properties": {"name": "Pécs", "reachable": true, "best_trip": {"departure_time": "06:59", "arrival_time": "07:00", "duration_minutes": 1, "transfer_count": 0}, "time_slots": [{"departure_time": "06:59", "arrival_time": "07:00", "duration_minutes": 1, "transfer_count": 0}, null, null, null, null, null], "best_duration": 1, "best_transfer_count": 0}}, {"type": "Feature", "geometry": {"type": "Point", "coordinates": [18.096, 46.141]}, "properties": {"name": "Abaliget", "reachable": true, "best_trip": {"departure_time": "06:30", "arrival_time": "07:15", "duration_minutes": 45, "transfer_count": 0}, "time_slots": [{"departure_time": "06:30", "arrival_time": "07:15", "duration_minutes": 45, "transfer_count": 0}, null, null, null, null, null], "best_duration": 45, "best_transfer_count": 0}}, {"type": "Feature", "geometry": {"type": "Point", "coordinates": [18.31, 46.04]}, "properties": {"name": "Kozármisleny", "reachable": true, "best_trip": {"departure_time": "06:50", "arrival_time": "07:05", "duration_minutes": 15, "transfer_count": 0}, "time_slots": [{"departure_time": "06:50", "arrival_time": "07:05", "duration_minutes": 15, "transfer_count": 0}, null, null, null, null, null], "best_duration": 15, "best_transfer_count": 0}}, {"type": "Feature", "geometry": {"type": "Point", "coordinates": [18.26, 46.19]}, "properties": {"name": "Komló", "reachable": true, "best_trip": {"departure_time": "06:10", "arrival_time": "07:00", "duration_minutes": 50, "transfer_count": 1}, "time_slots": [{"departure_time": "06:10", "arrival_time": "07:00", "duration_minutes": 50, "transfer_count": 1}, null, null, null, null, null], "best_duration": 50, "best_transfer_count": 1}}, {"type": "Feature", "geometry": {"type": "Point", "coordinates": [18.235, 45.847]}, "properties": {"name": "Harkány", "reachable": true, "best_trip": {"departure_time": "06:20", "arrival_time": "07:25", "duration_minutes": 65, "transfer_count": 1}, "time_slots": [{"departure_time": "06:20", "arrival_time": "07:25", "duration_minutes": 65, "transfer_count": 1}, null, null, null, null, null], "best_duration": 65, "best_transfer_count": 1}}, {"type": "Feature", "geometry": {"type": "Point", "coordinates": [18.296, 45.854]}, "properties": {"name": "Siklós", "reachable": true, "best_trip": {"departure_time": "06:30", "arrival_time": "07:15", "duration_minutes": 45, "transfer_count": 0}, "time_slots": [{"departure_time": "06:30", "arrival_time": "07:15", "duration_minutes": 45, "transfer_count": 0}, null, null, null, null, null], "best_duration": 45, "best_transfer_count": 0}}, {"type": "Feature", "geometry": {"type": "Point", "coordinates": [18.686, 45.991]}, "properties": {"name": "Mohács", "reachable": true, "best_trip": {"departure_time": "05:50", "arrival_time": "07:05", "duration_minutes": 75, "transfer_count": 1}, "time_slots": [{"departure_time": "05:50", "arrival_time": "07:05", "duration_minutes": 75, "transfer_count": 1}, null, null, null, null, null], "best_duration": 75, "best_transfer_count": 1}}, {"type": "Feature", "geometry": {"type": "Point", "coordinates": [17.98, 46.046]}, "properties": {"name": "Szentlőrinc", "reachable": true, "best_trip": {"departure_time": "06:45", "arrival_time": "07:10", "duration_minutes": 25, "transfer_count": 0}, "time_slots": [{"departure_time": "06:45", "arrival_time": "07:10", "duration_minutes": 25, "transfer_count": 0}, null, null, null, null, null], "best_duration": 25, "best_transfer_count": 0}}, {"type": "Feature", "geometry": {"type": "Point", "coordinates": [18.42, 46.16]}, "properties": {"name": "Pécsvárad", "reachable": true, "best_trip": {"departure_time": "06:40", "arrival_time": "07:20", "duration_minutes": 40, "transfer_count": 0}, "time_slots": [{"departure_time": "06:40", "arrival_time": "07:20", "duration_minutes": 40, "transfer_count": 0}, null, null, null, null, null], "best_duration": 40, "best_transfer_count": 0}}, {"type": "Feature", "geometry": {"type": "Point", "coordinates": [17.803, 46.048]}, "properties": {"name": "Szigetvár", "reachable": true, "best_trip": {"departure_time": "05:50", "arrival_time": "07:10", "duration_minutes": 80, "transfer_count": 1}, "time_slots": [{"departure_time": "05:50", "arrival_time": "07:10", "duration_minutes": 80, "transfer_count": 1}, null, null, null, null, null], "best_duration": 80, "best_transfer_count": 1}}]}