{
  "date": "2025-11-16",
  "arrival_window": {
    "start": "07:00",
    "end": "10:00"
  },
  "settlements": [
    {
      "id": 1,
      "name": "Abaliget",
      "lat": 46.140944,
      "lon": 18.095967,
      "reachable": true,
      "best_trip": {
        "departure_time": "06:30",
        "arrival_time": "07:15",
        "duration_minutes": 45,
        "transfer_count": 0
      },
      "best_duration": 45,
      "best_transfer_count": 0,
      "time_slots": [
        {
          "departure_time": "06:30",
          "arrival_time": "07:15",
          "duration_minutes": 45,
          "transfer_count": 0
        },
        null,
        null,
        null,
        null,
        null
      ]
    },
    {
      "id": 2,
      "name": "Adorjás",
      "lat": 45.832041,
      "lon": 18.020963,
      "reachable": false,
      "best_trip": null,
      "best_duration": null,
      "best_transfer_count": null,
      "time_slots": []
    },
    {
      "id": 3,
      "name": "Almamellék",
      "lat": 46.115031,
      "lon": 17.759066,
      "reachable": false,
      "best_trip": null,
      "best_duration": null,
      "best_transfer_count": null,
      "time_slots": []
    },
    {
      "id": 4,
      "name": "Alsómocsolád",
      "lat": 46.265153,
      "lon": 18.023792,
      "reachable": false,
      "best_trip": null,
      "best_duration": null,
      "best_transfer_count": null,
      "time_slots": []
    },
    {
      "id": 5,
      "name": "Alsószentmárton",
      "lat": 45.791403,
      "lon": 18.37869,
      "reachable": false,
      "best_trip": null,
      "best_duration": null,
      "best_transfer_count": null,
      "time_slots": []
    },
    {
      "id": 6,
      "name": "Apátvarasd",
      "lat": 46.128319,
      "lon": 18.538905,
      "reachable": false,
      "best_trip": null,
      "best_duration": null,
      "best_transfer_count": null,
      "time_slots": []
    },
    {
      "id": 7,
      "name": "Aranyosgadány",
      "lat": 46.001995,
      "lon": 18.156012,
      "reachable": false,
      "best_trip": null,
      "best_duration": null,
      "best_transfer_count": null,
      "time_slots": []
    },
    {
      "id": 8,
      "name": "Babarc",
      "lat": 45.998092,
      "lon": 18.572285,
      "reachable": false,
      "best_trip": null,
      "best_duration": null,
      "best_transfer_count": null,
      "time_slots": []
    },
    {
      "id": 9,
      "name": "Babarcszőlős",
      "lat": 45.996154,
      "lon": 18.590595,
      "reachable": false,
      "best_trip": null,
      "best_duration": null,
      "best_transfer_count": null,
      "time_slots": []
    },
    {
      "id": 10,
      "name": "Bakonya",
      "lat": 46.1034,
      "lon": 18.0711,
      "reachable": false,
      "best_trip": null,
      "best_duration": null,
      "best_transfer_count": null,
      "time_slots": []
    },
    {
      "id": 11,
      "name": "Baksa",
      "lat": 45.996788,
      "lon": 18.23206,
      "reachable": false,
      "best_trip": null,
      "best_duration": null,
      "best_transfer_count": null,
      "time_slots": []
    },
    {
      "id": 12,
      "name": "Bakóca",
      "lat": 46.192299,
      "lon": 18.035653,
      "reachable": false,
      "best_trip": null,
      "best_duration": null,
      "best_transfer_count": null,
      "time_slots": []
    },
    {
      "id": 13,
      "name": "Baranyahidvég",
      "lat": 45.86083,
      "lon": 18.357646,
      "reachable": false,
      "best_trip": null,
      "best_duration": null,
      "best_transfer_count": null,
      "time_slots": []
    },
    {
      "id": 14,
      "name": "Baranyajenő",
      "lat": 46.188716,
      "lon": 18.270129,
      "reachable": false,
      "best_trip": null,
      "best_duration": null,
      "best_transfer_count": null,
      "time_slots": []
    },
    {
      "id": 15,
      "name": "Baranyaszentgyörgy",
      "lat": 46.175909,
      "lon": 18.251821,
      "reachable": false,
      "best_trip": null,
      "best_duration": null,
      "best_transfer_count": null,
      "time_slots": []
    },
    {
      "id": 16,
      "name": "Baranyavár",
      "lat": 45.9652,
      "lon": 17.9315,
      "reachable": false,
      "best_trip": null,
      "best_duration": null,
      "best_transfer_count": null,
      "time_slots": []
    },
    {
      "id": 17,
      "name": "Barátúr",
      "lat": 45.9697,
      "lon": 17.9738,
      "reachable": false,
      "best_trip": null,
      "best_duration": null,
      "best_transfer_count": null,
      "time_slots": []
    },
    {
      "id": 18,
      "name": "Basal",
      "lat": 45.929017,
      "lon": 17.897171,
      "reachable": false,
      "best_trip": null,
      "best_duration": null,
      "best_transfer_count": null,
      "time_slots": []
    },
    {
      "id": 19,
      "name": "Belvárdgyula",
      "lat": 45.975778,
      "lon": 18.444028,
      "reachable": false,
      "best_trip": null,
      "best_duration": null,
      "best_transfer_count": null,
      "time_slots": []
    },
    {
      "id": 20,
      "name": "Beremend",
      "lat": 45.79565,
      "lon": 18.437907,
      "reachable": false,
      "best_trip": null,
      "best_duration": null,
      "best_transfer_count": null,
      "time_slots": []
    },
    {
      "id": 21,
      "name": "Berkesd",
      "lat": 45.929616,
      "lon": 18.344095,
      "reachable": false,
      "best_trip": null,
      "best_duration": null,
      "best_transfer_count": null,
      "time_slots": []
    },
    {
      "id": 22,
      "name": "Besence",
      "lat": 45.874193,
      "lon": 17.95067,
      "reachable": false,
      "best_trip": null,
      "best_duration": null,
      "best_transfer_count": null,
      "time_slots": []
    },
    {
      "id": 23,
      "name": "Bicsérd",
      "lat": 46.021304,
      "lon": 18.084978,
      "reachable": false,
      "best_trip": null,
      "best_duration": null,
      "best_transfer_count": null,
      "time_slots": []
    },
    {
      "id": 24,
      "name": "Bikal",
      "lat": 46.353973,
      "lon": 18.289776,
      "reachable": false,
      "best_trip": null,
      "best_duration": null,
      "best_transfer_count": null,
      "time_slots": []
    },
    {
      "id": 25,
      "name": "Birján",
      "lat": 46.079947,
      "lon": 18.327824,
      "reachable": false,
      "best_trip": null,
      "best_duration": null,
      "best_transfer_count": null,
      "time_slots": []
    },
    {
      "id": 26,
      "name": "Bisse",
      "lat": 45.97399,
      "lon": 18.164141,
      "reachable": false,
      "best_trip": null,
      "best_duration": null,
      "best_transfer_count": null,
      "time_slots": []
    },
    {
      "id": 27,
      "name": "Boda",
      "lat": 46.081933,
      "lon": 18.011971,
      "reachable": false,
      "best_trip": null,
      "best_duration": null,
      "best_transfer_count": null,
      "time_slots": []
    },
    {
      "id": 28,
      "name": "Bodolyabér",
      "lat": 46.248108,
      "lon": 18.109365,
      "reachable": false,
      "best_trip": null,
      "best_duration": null,
      "best_transfer_count": null,
      "time_slots": []
    },
    {
      "id": 29,
      "name": "Bogád",
      "lat": 46.067678,
      "lon": 18.326531,
      "reachable": false,
      "best_trip": null,
      "best_duration": null,
      "best_transfer_count": null,
      "time_slots": []
    },
    {
      "id": 30,
      "name": "Bogádmindszent",
      "lat": 45.935729,
      "lon": 18.230616,
      "reachable": false,
      "best_trip": null,
      "best_duration": null,
      "best_transfer_count": null,
      "time_slots": []
    },
    {
      "id": 31,
      "name": "Boldogasszonyfa",
      "lat": 46.056628,
      "lon": 17.884908,
      "reachable": false,
      "best_trip": null,
      "best_duration": null,
      "best_transfer_count": null,
      "time_slots": []
    },
    {
      "id": 32,
      "name": "Borjád",
      "lat": 45.975457,
      "lon": 18.489716,
      "reachable": false,
      "best_trip": null,
      "best_duration": null,
      "best_transfer_count": null,
      "time_slots": []
    },
    {
      "id": 33,
      "name": "Bosta",
      "lat": 46.086258,
      "lon": 18.208425,
      "reachable": false,
      "best_trip": null,
      "best_duration": null,
      "best_transfer_count": null,
      "time_slots": []
    },
    {
      "id": 34,
      "name": "Botykapeterd",
      "lat": 45.977725,
      "lon": 17.954227,
      "reachable": false,
      "best_trip": null,
      "best_duration": null,
      "best_transfer_count": null,
      "time_slots": []
    },
    {
      "id": 35,
      "name": "Bánfa",
      "lat": 45.944074,
      "lon": 18.046406,
      "reachable": false,
      "best_trip": null,
      "best_duration": null,
      "best_transfer_count": null,
      "time_slots": []
    },
    {
      "id": 36,
      "name": "Bár",
      "lat": 45.988555,
      "lon": 18.649659,
      "reachable": false,
      "best_trip": null,
      "best_duration": null,
      "best_transfer_count": null,
      "time_slots": []
    },
    {
      "id": 37,
      "name": "Bóly",
      "lat": 45.967721,
      "lon": 18.520253,
      "reachable": false,
      "best_trip": null,
      "best_duration": null,
      "best_transfer_count": null,
      "time_slots": []
    },
    {
      "id": 38,
      "name": "Bükkösd",
      "lat": 46.039592,
      "lon": 18.000147,
      "reachable": false,
      "best_trip": null,
      "best_duration": null,
      "best_transfer_count": null,
      "time_slots": []
    },
    {
      "id": 39,
      "name": "Bürüs",
      "lat": 45.974847,
      "lon": 17.877099,
      "reachable": false,
      "best_trip": null,
      "best_duration": null,
      "best_transfer_count": null,
      "time_slots": []
    },
    {
      "id": 40,
      "name": "Csarnóta",
      "lat": 45.993816,
      "lon": 18.188743,
      "reachable": false,
      "best_trip": null,
      "best_duration": null,
      "best_transfer_count": null,
      "time_slots": []
    },
    {
      "id": 41,
      "name": "Csebény",
      "lat": 46.189043,
      "lon": 17.858116,
      "reachable": false,
      "best_trip": null,
      "best_duration": null,
      "best_transfer_count": null,
      "time_slots": []
    },
    {
      "id": 42,
      "name": "Cserdi",
      "lat": 45.975107,
      "lon": 18.001166,
      "reachable": false,
      "best_trip": null,
      "best_duration": null,
      "best_transfer_count": null,
      "time_slots": []
    },
    {
      "id": 43,
      "name": "Cserkút",
      "lat": 46.065337,
      "lon": 18.17098,
      "reachable": false,
      "best_trip": null,
      "best_duration": null,
      "best_transfer_count": null,
      "time_slots": []
    },
    {
      "id": 44,
      "name": "Csertő",
      "lat": 46.012731,
      "lon": 17.912919,
      "reachable": false,
      "best_trip": null,
      "best_duration": null,
      "best_transfer_count": null,
      "time_slots": []
    },
    {
      "id": 45,
      "name": "Csonkamindszent",
      "lat": 45.869,
      "lon": 18.229,
      "reachable": false,
      "best_trip": null,
      "best_duration": null,
      "best_transfer_count": null,
      "time_slots": []
    },
    {
      "id": 46,
      "name": "Csányoszró",
      "lat": 45.850959,
      "lon": 17.919921,
      "reachable": false,
      "best_trip": null,
      "best_duration": null,
      "best_transfer_count": null,
      "time_slots": []
    },
    {
      "id": 47,
      "name": "Cun",
      "lat": 45.796229,
      "lon": 18.192283,
      "reachable": false,
      "best_trip": null,
      "best_duration": null,
      "best_transfer_count": null,
      "time_slots": []
    },
    {
      "id": 48,
      "name": "Dencsháza",
      "lat": 45.978984,
      "lon": 17.889772,
      "reachable": false,
      "best_trip": null,
      "best_duration": null,
      "best_transfer_count": null,
      "time_slots": []
    },
    {
      "id": 49,
      "name": "Dinnyeberki",
      "lat": 46.105654,
      "lon": 18.001287,
      "reachable": false,
      "best_trip": null,
      "best_duration": null,
      "best_transfer_count": null,
      "time_slots": []
    },
    {
      "id": 50,
      "name": "Diósviszló",
      "lat": 45.915733,
      "lon": 18.175698,
      "reachable": false,
      "best_trip": null,
      "best_duration": null,
      "best_transfer_count": null,
      "time_slots": []
    },
    {
      "id": 51,
      "name": "Drávacsehi",
      "lat": 45.848844,
      "lon": 17.926478,
      "reachable": false,
      "best_trip": null,
      "best_duration": null,
      "best_transfer_count": null,
      "time_slots": []
    },
    {
      "id": 52,
      "name": "Drávacsepely",
      "lat": 45.845909,
      "lon": 17.909632,
      "reachable": false,
      "best_trip": null,
      "best_duration": null,
      "best_transfer_count": null,
      "time_slots": []
    },
    {
      "id": 53,
      "name": "Drávafok",
      "lat": 45.872102,
      "lon": 17.736103,
      "reachable": false,
      "best_trip": null,
      "best_duration": null,
      "best_transfer_count": null,
      "time_slots": []
    },
    {
      "id": 54,
      "name": "Drávakeresztúr",
      "lat": 45.804913,
      "lon": 18.190362,
      "reachable": false,
      "best_trip": null,
      "best_duration": null,
      "best_transfer_count": null,
      "time_slots": []
    },
    {
      "id": 55,
      "name": "Drávapalkonya",
      "lat": 45.8599,
      "lon": 18.2868,
      "reachable": false,
      "best_trip": null,
      "best_duration": null,
      "best_transfer_count": null,
      "time_slots": []
    },
    {
      "id": 56,
      "name": "Drávapiski",
      "lat": 45.8709,
      "lon": 18.2615,
      "reachable": false,
      "best_trip": null,
      "best_duration": null,
      "best_transfer_count": null,
      "time_slots": []
    },
    {
      "id": 57,
      "name": "Drávaszabolcs",
      "lat": 45.795007,
      "lon": 18.308095,
      "reachable": false,
      "best_trip": null,
      "best_duration": null,
      "best_transfer_count": null,
      "time_slots": []
    },
    {
      "id": 58,
      "name": "Drávaszerdahely",
      "lat": 45.82726,
      "lon": 18.249634,
      "reachable": false,
      "best_trip": null,
      "best_duration": null,
      "best_transfer_count": null,
      "time_slots": []
    },
    {
      "id": 59,
      "name": "Drávatamási",
      "lat": 45.873272,
      "lon": 17.875594,
      "reachable": false,
      "best_trip": null,
      "best_duration": null,
      "best_transfer_count": null,
      "time_slots": []
    },
    {
      "id": 60,
      "name": "Dunaszekcső",
      "lat": 46.094079,
      "lon": 18.780039,
      "reachable": false,
      "best_trip": null,
      "best_duration": null,
      "best_transfer_count": null,
      "time_slots": []
    },
    {
      "id": 61,
      "name": "Egerág",
      "lat": 45.986983,
      "lon": 18.278999,
      "reachable": false,
      "best_trip": null,
      "best_duration": null,
      "best_transfer_count": null,
      "time_slots": []
    },
    {
      "id": 62,
      "name": "Egyházasharaszti",
      "lat": 45.851001,
      "lon": 18.117823,
      "reachable": false,
      "best_trip": null,
      "best_duration": null,
      "best_transfer_count": null,
      "time_slots": []
    },
    {
      "id": 63,
      "name": "Egyházaskozár",
      "lat": 46.209122,
      "lon": 18.173273,
      "reachable": false,
      "best_trip": null,
      "best_duration": null,
      "best_transfer_count": null,
      "time_slots": []
    },
    {
      "id": 64,
      "name": "Ellend",
      "lat": 45.99852,
      "lon": 18.30454,
      "reachable": false,
      "best_trip": null,
      "best_duration": null,
      "best_transfer_count": null,
      "time_slots": []
    },
    {
      "id": 65,
      "name": "Endrőc",
      "lat": 45.923702,
      "lon": 17.951338,
      "reachable": false,
      "best_trip": null,
      "best_duration": null,
      "best_transfer_count": null,
      "time_slots": []
    },
    {
      "id": 66,
      "name": "Erdősmecske",
      "lat": 46.242759,
      "lon": 18.468776,
      "reachable": false,
      "best_trip": null,
      "best_duration": null,
      "best_transfer_count": null,
      "time_slots": []
    },
    {
      "id": 67,
      "name": "Erdősmárok",
      "lat": 45.935988,
      "lon": 18.374139,
      "reachable": false,
      "best_trip": null,
      "best_duration": null,
      "best_transfer_count": null,
      "time_slots": []
    },
    {
      "id": 68,
      "name": "Erzsébet",
      "lat": 45.946359,
      "lon": 18.095651,
      "reachable": false,
      "best_trip": null,
      "best_duration": null,
      "best_transfer_count": null,
      "time_slots": []
    },
    {
      "id": 69,
      "name": "Fazekasboda",
      "lat": 46.13929,
      "lon": 18.476498,
      "reachable": false,
      "best_trip": null,
      "best_duration": null,
      "best_transfer_count": null,
      "time_slots": []
    },
    {
      "id": 70,
      "name": "Feked",
      "lat": 46.123542,
      "lon": 18.62616,
      "reachable": false,
      "best_trip": null,
      "best_duration": null,
      "best_transfer_count": null,
      "time_slots": []
    },
    {
      "id": 71,
      "name": "Felsőegerszeg",
      "lat": 46.179498,
      "lon": 18.088367,
      "reachable": false,
      "best_trip": null,
      "best_duration": null,
      "best_transfer_count": null,
      "time_slots": []
    },
    {
      "id": 72,
      "name": "Felsőszentmárton",
      "lat": 45.866056,
      "lon": 17.96458,
      "reachable": false,
      "best_trip": null,
      "best_duration": null,
      "best_transfer_count": null,
      "time_slots": []
    },
    {
      "id": 73,
      "name": "Fony",
      "lat": 46.098425,
      "lon": 18.079175,
      "reachable": false,
      "best_trip": null,
      "best_duration": null,
      "best_transfer_count": null,
      "time_slots": []
    },
    {
      "id": 74,
      "name": "Garé",
      "lat": 45.9793,
      "lon": 18.0911,
      "reachable": false,
      "best_trip": null,
      "best_duration": null,
      "best_transfer_count": null,
      "time_slots": []
    },
    {
      "id": 75,
      "name": "Gerde",
      "lat": 46.154032,
      "lon": 18.145604,
      "reachable": false,
      "best_trip": null,
      "best_duration": null,
      "best_transfer_count": null,
      "time_slots": []
    },
    {
      "id": 76,
      "name": "Geresdlak",
      "lat": 46.093,
      "lon": 18.5177,
      "reachable": false,
      "best_trip": null,
      "best_duration": null,
      "best_transfer_count": null,
      "time_slots": []
    },
    {
      "id": 77,
      "name": "Gerényes",
      "lat": 46.324186,
      "lon": 18.155614,
      "reachable": false,
      "best_trip": null,
      "best_duration": null,
      "best_transfer_count": null,
      "time_slots": []
    },
    {
      "id": 78,
      "name": "Gilvánfa",
      "lat": 45.868057,
      "lon": 18.003149,
      "reachable": false,
      "best_trip": null,
      "best_duration": null,
      "best_transfer_count": null,
      "time_slots": []
    },
    {
      "id": 79,
      "name": "Gordisa",
      "lat": 45.8506,
      "lon": 18.0024,
      "reachable": false,
      "best_trip": null,
      "best_duration": null,
      "best_transfer_count": null,
      "time_slots": []
    },
    {
      "id": 80,
      "name": "Gyód",
      "lat": 46.047382,
      "lon": 18.224067,
      "reachable": false,
      "best_trip": null,
      "best_duration": null,
      "best_transfer_count": null,
      "time_slots": []
    },
    {
      "id": 81,
      "name": "Gyöngyfa",
      "lat": 46.0594,
      "lon": 18.135,
      "reachable": false,
      "best_trip": null,
      "best_duration": null,
      "best_transfer_count": null,
      "time_slots": []
    },
    {
      "id": 82,
      "name": "Gödre",
      "lat": 46.222498,
      "lon": 18.080055,
      "reachable": false,
      "best_trip": null,
      "best_duration": null,
      "best_transfer_count": null,
      "time_slots": []
    },
    {
      "id": 83,
      "name": "Görcsöny",
      "lat": 45.959752,
      "lon": 18.210252,
      "reachable": false,
      "best_trip": null,
      "best_duration": null,
      "best_transfer_count": null,
      "time_slots": []
    },
    {
      "id": 84,
      "name": "Görcsönydoboka",
      "lat": 45.949979,
      "lon": 18.234671,
      "reachable": false,
      "best_trip": null,
      "best_duration": null,
      "best_transfer_count": null,
      "time_slots": []
    },
    {
      "id": 85,
      "name": "Harkány",
      "lat": 45.846738,
      "lon": 18.236229,
      "reachable": true,
      "best_trip": {
        "departure_time": "06:20",
        "arrival_time": "07:25",
        "duration_minutes": 65,
        "transfer_count": 1
      },
      "best_duration": 65,
      "best_transfer_count": 1,
      "time_slots": [
        {
          "departure_time": "06:20",
          "arrival_time": "07:25",
          "duration_minutes": 65,
          "transfer_count": 1
        },
        null,
        null,
        null,
        null,
        null
      ]
    },
    {
      "id": 86,
      "name": "Hegyhátmaróc",
      "lat": 45.93922,
      "lon": 18.487864,
      "reachable": false,
      "best_trip": null,
      "best_duration": null,
      "best_transfer_count": null,
      "time_slots": []
    },
    {
      "id": 87,
      "name": "Hegyszentmárton",
      "lat": 45.905475,
      "lon": 18.405707,
      "reachable": false,
      "best_trip": null,
      "best_duration": null,
      "best_transfer_count": null,
      "time_slots": []
    },
    {
      "id": 88,
      "name": "Helesfa",
      "lat": 46.023927,
      "lon": 17.985807,
      "reachable": false,
      "best_trip": null,
      "best_duration": null,
      "best_transfer_count": null,
      "time_slots": []
    },
    {
      "id": 89,
      "name": "Hetvehely",
      "lat": 46.141214,
      "lon": 18.054202,
      "reachable": false,
      "best_trip": null,
      "best_duration": null,
      "best_transfer_count": null,
      "time_slots": []
    },
    {
      "id": 90,
      "name": "Hidas",
      "lat": 46.211857,
      "lon": 18.511172,
      "reachable": false,
      "best_trip": null,
      "best_duration": null,
      "best_transfer_count": null,
      "time_slots": []
    },
    {
      "id": 91,
      "name": "Hidvégardó",
      "lat": 45.997,
      "lon": 18.197,
      "reachable": false,
      "best_trip": null,
      "best_duration": null,
      "best_transfer_count": null,
      "time_slots": []
    },
    {
      "id": 92,
      "name": "Himesháza",
      "lat": 46.033266,
      "lon": 18.537257,
      "reachable": false,
      "best_trip": null,
      "best_duration": null,
      "best_transfer_count": null,
      "time_slots": []
    },
    {
      "id": 93,
      "name": "Hirics",
      "lat": 45.888133,
      "lon": 18.006799,
      "reachable": false,
      "best_trip": null,
      "best_duration": null,
      "best_transfer_count": null,
      "time_slots": []
    },
    {
      "id": 94,
      "name": "Hobol",
      "lat": 45.964393,
      "lon": 17.851958,
      "reachable": false,
      "best_trip": null,
      "best_duration": null,
      "best_transfer_count": null,
      "time_slots": []
    },
    {
      "id": 95,
      "name": "Homorúd",
      "lat": 45.962294,
      "lon": 18.632405,
      "reachable": false,
      "best_trip": null,
      "best_duration": null,
      "best_transfer_count": null,
      "time_slots": []
    },
    {
      "id": 96,
      "name": "Hosszúhetény",
      "lat": 46.164488,
      "lon": 18.355419,
      "reachable": false,
      "best_trip": null,
      "best_duration": null,
      "best_transfer_count": null,
      "time_slots": []
    },
    {
      "id": 97,
      "name": "Husztót",
      "lat": 46.1756,
      "lon": 18.100783,
      "reachable": false,
      "best_trip": null,
      "best_duration": null,
      "best_transfer_count": null,
      "time_slots": []
    },
    {
      "id": 98,
      "name": "Hásságy",
      "lat": 45.947752,
      "lon": 18.233704,
      "reachable": false,
      "best_trip": null,
      "best_duration": null,
      "best_transfer_count": null,
      "time_slots": []
    },
    {
      "id": 99,
      "name": "Ibafa",
      "lat": 46.138672,
      "lon": 17.856785,
      "reachable": false,
      "best_trip": null,
      "best_duration": null,
      "best_transfer_count": null,
      "time_slots": []
    },
    {
      "id": 100,
      "name": "Illocska",
      "lat": 45.859776,
      "lon": 18.365852,
      "reachable": false,
      "best_trip": null,
      "best_duration": null,
      "best_transfer_count": null,
      "time_slots": []
    },
    {
      "id": 101,
      "name": "Ipacsfa",
      "lat": 45.903981,
      "lon": 18.307953,
      "reachable": false,
      "best_trip": null,
      "best_duration": null,
      "best_transfer_count": null,
      "time_slots": []
    },
    {
      "id": 102,
      "name": "Ivánbattyán",
      "lat": 45.971826,
      "lon": 18.356762,
      "reachable": false,
      "best_trip": null,
      "best_duration": null,
      "best_transfer_count": null,
      "time_slots": []
    },
    {
      "id": 103,
      "name": "Ivándárda",
      "lat": 45.9626,
      "lon": 18.6509,
      "reachable": false,
      "best_trip": null,
      "best_duration": null,
      "best_transfer_count": null,
      "time_slots": []
    },
    {
      "id": 104,
      "name": "Jágónak",
      "lat": 45.956948,
      "lon": 17.944708,
      "reachable": false,
      "best_trip": null,
      "best_duration": null,
      "best_transfer_count": null,
      "time_slots": []
    },
    {
      "id": 105,
      "name": "Kacsóta",
      "lat": 45.989885,
      "lon": 17.973347,
      "reachable": false,
      "best_trip": null,
      "best_duration": null,
      "best_transfer_count": null,
      "time_slots": []
    },
    {
      "id": 106,
      "name": "Katádfa",
      "lat": 45.928877,
      "lon": 17.973892,
      "reachable": false,
      "best_trip": null,
      "best_duration": null,
      "best_transfer_count": null,
      "time_slots": []
    },
    {
      "id": 107,
      "name": "Keszü",
      "lat": 45.9979,
      "lon": 18.2234,
      "reachable": false,
      "best_trip": null,
      "best_duration": null,
      "best_transfer_count": null,
      "time_slots": []
    },
    {
      "id": 108,
      "name": "Királyegyháza",
      "lat": 45.977907,
      "lon": 18.247485,
      "reachable": false,
      "best_trip": null,
      "best_duration": null,
      "best_transfer_count": null,
      "time_slots": []
    },
    {
      "id": 109,
      "name": "Kisasszonyfa",
      "lat": 46.0612,
      "lon": 17.9529,
      "reachable": false,
      "best_trip": null,
      "best_duration": null,
      "best_transfer_count": null,
      "time_slots": []
    },
    {
      "id": 110,
      "name": "Kisbeszterce",
      "lat": 45.97365,
      "lon": 18.02986,
      "reachable": false,
      "best_trip": null,
      "best_duration": null,
      "best_transfer_count": null,
      "time_slots": []
    },
    {
      "id": 111,
      "name": "Kisbudmér",
      "lat": 45.953881,
      "lon": 18.439981,
      "reachable": false,
      "best_trip": null,
      "best_duration": null,
      "best_transfer_count": null,
      "time_slots": []
    },
    {
      "id": 112,
      "name": "Kisdobsza",
      "lat": 45.9762,
      "lon": 17.7399,
      "reachable": false,
      "best_trip": null,
      "best_duration": null,
      "best_transfer_count": null,
      "time_slots": []
    },
    {
      "id": 113,
      "name": "Kisdér",
      "lat": 45.887709,
      "lon": 18.142938,
      "reachable": false,
      "best_trip": null,
      "best_duration": null,
      "best_transfer_count": null,
      "time_slots": []
    },
    {
      "id": 114,
      "name": "Kisfüged",
      "lat": 45.9676,
      "lon": 17.7678,
      "reachable": false,
      "best_trip": null,
      "best_duration": null,
      "best_transfer_count": null,
      "time_slots": []
    },
    {
      "id": 115,
      "name": "Kishajmás",
      "lat": 46.2802,
      "lon": 18.2186,
      "reachable": false,
      "best_trip": null,
      "best_duration": null,
      "best_transfer_count": null,
      "time_slots": []
    },
    {
      "id": 116,
      "name": "Kisharsány",
      "lat": 45.867979,
      "lon": 18.40708,
      "reachable": false,
      "best_trip": null,
      "best_duration": null,
      "best_transfer_count": null,
      "time_slots": []
    },
    {
      "id": 117,
      "name": "Kisherend",
      "lat": 45.981091,
      "lon": 18.408753,
      "reachable": false,
      "best_trip": null,
      "best_duration": null,
      "best_transfer_count": null,
      "time_slots": []
    },
    {
      "id": 118,
      "name": "Kisjakabfalva",
      "lat": 45.885319,
      "lon": 18.414938,
      "reachable": false,
      "best_trip": null,
      "best_duration": null,
      "best_transfer_count": null,
      "time_slots": []
    },
    {
      "id": 119,
      "name": "Kiskassa",
      "lat": 45.923897,
      "lon": 18.468641,
      "reachable": false,
      "best_trip": null,
      "best_duration": null,
      "best_transfer_count": null,
      "time_slots": []
    },
    {
      "id": 120,
      "name": "Kislippó",
      "lat": 45.932424,
      "lon": 18.392358,
      "reachable": false,
      "best_trip": null,
      "best_duration": null,
      "best_transfer_count": null,
      "time_slots": []
    },
    {
      "id": 121,
      "name": "Kisnyárád",
      "lat": 45.895006,
      "lon": 18.511746,
      "reachable": false,
      "best_trip": null,
      "best_duration": null,
      "best_transfer_count": null,
      "time_slots": []
    },
    {
      "id": 122,
      "name": "Kisorsós",
      "lat": 45.9,
      "lon": 18.25,
      "reachable": false,
      "best_trip": null,
      "best_duration": null,
      "best_transfer_count": null,
      "time_slots": []
    },
    {
      "id": 123,
      "name": "Kispeterd",
      "lat": 45.9619,
      "lon": 17.9385,
      "reachable": false,
      "best_trip": null,
      "best_duration": null,
      "best_transfer_count": null,
      "time_slots": []
    },
    {
      "id": 124,
      "name": "Kisszentmárton",
      "lat": 45.930608,
      "lon": 18.046135,
      "reachable": false,
      "best_trip": null,
      "best_duration": null,
      "best_transfer_count": null,
      "time_slots": []
    },
    {
      "id": 125,
      "name": "Kistamási",
      "lat": 45.975826,
      "lon": 17.995333,
      "reachable": false,
      "best_trip": null,
      "best_duration": null,
      "best_transfer_count": null,
      "time_slots": []
    },
    {
      "id": 126,
      "name": "Kistapolca",
      "lat": 45.915944,
      "lon": 18.245363,
      "reachable": false,
      "best_trip": null,
      "best_duration": null,
      "best_transfer_count": null,
      "time_slots": []
    },
    {
      "id": 127,
      "name": "Kistótfalu",
      "lat": 45.869212,
      "lon": 18.303397,
      "reachable": false,
      "best_trip": null,
      "best_duration": null,
      "best_transfer_count": null,
      "time_slots": []
    },
    {
      "id": 128,
      "name": "Kisvaszar",
      "lat": 46.299043,
      "lon": 18.237087,
      "reachable": false,
      "best_trip": null,
      "best_duration": null,
      "best_transfer_count": null,
      "time_slots": []
    },
    {
      "id": 129,
      "name": "Kisújbánya",
      "lat": 46.224056,
      "lon": 18.428815,
      "reachable": false,
      "best_trip": null,
      "best_duration": null,
      "best_transfer_count": null,
      "time_slots": []
    },
    {
      "id": 130,
      "name": "Komló",
      "lat": 46.19344,
      "lon": 18.26354,
      "reachable": true,
      "best_trip": {
        "departure_time": "06:10",
        "arrival_time": "07:00",
        "duration_minutes": 50,
        "transfer_count": 1
      },
      "best_duration": 50,
      "best_transfer_count": 1,
      "time_slots": [
        {
          "departure_time": "06:10",
          "arrival_time": "07:00",
          "duration_minutes": 50,
          "transfer_count": 1
        },
        null,
        null,
        null,
        null,
        null
      ]
    },
    {
      "id": 131,
      "name": "Kovácshida",
      "lat": 45.954523,
      "lon": 18.457702,
      "reachable": false,
      "best_trip": null,
      "best_duration": null,
      "best_transfer_count": null,
      "time_slots": []
    },
    {
      "id": 132,
      "name": "Kovácsszénája",
      "lat": 46.132826,
      "lon": 18.082213,
      "reachable": false,
      "best_trip": null,
      "best_duration": null,
      "best_transfer_count": null,
      "time_slots": []
    },
    {
      "id": 133,
      "name": "Kozármisleny",
      "lat": 46.042566,
      "lon": 18.294712,
      "reachable": true,
      "best_trip": {
        "departure_time": "06:50",
        "arrival_time": "07:05",
        "duration_minutes": 15,
        "transfer_count": 0
      },
      "best_duration": 15,
      "best_transfer_count": 0,
      "time_slots": [
        {
          "departure_time": "06:50",
          "arrival_time": "07:05",
          "duration_minutes": 15,
          "transfer_count": 0
        },
        null,
        null,
        null,
        null,
        null
      ]
    },
    {
      "id": 134,
      "name": "Kákics",
      "lat": 45.910382,
      "lon": 17.784245,
      "reachable": false,
      "best_trip": null,
      "best_duration": null,
      "best_transfer_count": null,
      "time_slots": []
    },
    {
      "id": 135,
      "name": "Kára",
      "lat": 45.953925,
      "lon": 17.957261,
      "reachable": false,
      "best_trip": null,
      "best_duration": null,
      "best_transfer_count": null,
      "time_slots": []
    },
    {
      "id": 136,
      "name": "Kárász",
      "lat": 46.234806,
      "lon": 18.372783,
      "reachable": false,
      "best_trip": null,
      "best_duration": null,
      "best_transfer_count": null,
      "time_slots": []
    },
    {
      "id": 137,
      "name": "Kásád",
      "lat": 45.842699,
      "lon": 18.246117,
      "reachable": false,
      "best_trip": null,
      "best_duration": null,
      "best_transfer_count": null,
      "time_slots": []
    },
    {
      "id": 138,
      "name": "Kátoly",
      "lat": 45.899633,
      "lon": 18.206642,
      "reachable": false,
      "best_trip": null,
      "best_duration": null,
      "best_transfer_count": null,
      "time_slots": []
    },
    {
      "id": 139,
      "name": "Kékesd",
      "lat": 46.138946,
      "lon": 18.529659,
      "reachable": false,
      "best_trip": null,
      "best_duration": null,
      "best_transfer_count": null,
      "time_slots": []
    },
    {
      "id": 140,
      "name": "Kémes",
      "lat": 45.901748,
      "lon": 17.995197,
      "reachable": false,
      "best_trip": null,
      "best_duration": null,
      "best_transfer_count": null,
      "time_slots": []
    },
    {
      "id": 141,
      "name": "Kétújfalu",
      "lat": 45.93261,
      "lon": 17.953533,
      "reachable": false,
      "best_trip": null,
      "best_duration": null,
      "best_transfer_count": null,
      "time_slots": []
    },
    {
      "id": 142,
      "name": "Kórós",
      "lat": 45.88547,
      "lon": 17.950886,
      "reachable": false,
      "best_trip": null,
      "best_duration": null,
      "best_transfer_count": null,
      "time_slots": []
    },
    {
      "id": 143,
      "name": "Köblény",
      "lat": 46.231058,
      "lon": 18.264136,
      "reachable": false,
      "best_trip": null,
      "best_duration": null,
      "best_transfer_count": null,
      "time_slots": []
    },
    {
      "id": 144,
      "name": "Kökény",
      "lat": 45.996063,
      "lon": 18.300763,
      "reachable": false,
      "best_trip": null,
      "best_duration": null,
      "best_transfer_count": null,
      "time_slots": []
    },
    {
      "id": 145,
      "name": "Kölked",
      "lat": 45.943659,
      "lon": 18.730245,
      "reachable": false,
      "best_trip": null,
      "best_duration": null,
      "best_transfer_count": null,
      "time_slots": []
    },
    {
      "id": 146,
      "name": "Kővágószőlős",
      "lat": 46.066726,
      "lon": 18.142008,
      "reachable": false,
      "best_trip": null,
      "best_duration": null,
      "best_transfer_count": null,
      "time_slots": []
    },
    {
      "id": 147,
      "name": "Kővágótőttős",
      "lat": 46.090102,
      "lon": 18.139921,
      "reachable": false,
      "best_trip": null,
      "best_duration": null,
      "best_transfer_count": null,
      "time_slots": []
    },
    {
      "id": 148,
      "name": "Lapáncsa",
      "lat": 45.95717,
      "lon": 18.557214,
      "reachable": false,
      "best_trip": null,
      "best_duration": null,
      "best_transfer_count": null,
      "time_slots": []
    },
    {
      "id": 149,
      "name": "Liget",
      "lat": 46.094769,
      "lon": 18.362278,
      "reachable": false,
      "best_trip": null,
      "best_duration": null,
      "best_transfer_count": null,
      "time_slots": []
    },
    {
      "id": 150,
      "name": "Lippó",
      "lat": 45.886443,
      "lon": 18.510576,
      "reachable": false,
      "best_trip": null,
      "best_duration": null,
      "best_transfer_count": null,
      "time_slots": []
    },
    {
      "id": 151,
      "name": "Liptód",
      "lat": 45.872663,
      "lon": 18.478002,
      "reachable": false,
      "best_trip": null,
      "best_duration": null,
      "best_transfer_count": null,
      "time_slots": []
    },
    {
      "id": 152,
      "name": "Lothárd",
      "lat": 46.009729,
      "lon": 18.171962,
      "reachable": false,
      "best_trip": null,
      "best_duration": null,
      "best_transfer_count": null,
      "time_slots": []
    },
    {
      "id": 153,
      "name": "Lovászhetény",
      "lat": 46.177904,
      "lon": 18.453702,
      "reachable": false,
      "best_trip": null,
      "best_duration": null,
      "best_transfer_count": null,
      "time_slots": []
    },
    {
      "id": 154,
      "name": "Lánycsók",
      "lat": 45.973668,
      "lon": 18.63196,
      "reachable": false,
      "best_trip": null,
      "best_duration": null,
      "best_transfer_count": null,
      "time_slots": []
    },
    {
      "id": 155,
      "name": "Lúzsok",
      "lat": 45.917409,
      "lon": 18.153158,
      "reachable": false,
      "best_trip": null,
      "best_duration": null,
      "best_transfer_count": null,
      "time_slots": []
    },
    {
      "id": 156,
      "name": "Magyarbóly",
      "lat": 45.866807,
      "lon": 18.510972,
      "reachable": false,
      "best_trip": null,
      "best_duration": null,
      "best_transfer_count": null,
      "time_slots": []
    },
    {
      "id": 157,
      "name": "Magyaregregy",
      "lat": 46.251986,
      "lon": 18.33191,
      "reachable": false,
      "best_trip": null,
      "best_duration": null,
      "best_transfer_count": null,
      "time_slots": []
    },
    {
      "id": 158,
      "name": "Magyarhertelend",
      "lat": 46.210466,
      "lon": 18.147103,
      "reachable": false,
      "best_trip": null,
      "best_duration": null,
      "best_transfer_count": null,
      "time_slots": []
    },
    {
      "id": 159,
      "name": "Magyarlukafa",
      "lat": 45.955606,
      "lon": 17.915469,
      "reachable": false,
      "best_trip": null,
      "best_duration": null,
      "best_transfer_count": null,
      "time_slots": []
    },
    {
      "id": 160,
      "name": "Magyarmecske",
      "lat": 45.978162,
      "lon": 17.88494,
      "reachable": false,
      "best_trip": null,
      "best_duration": null,
      "best_transfer_count": null,
      "time_slots": []
    },
    {
      "id": 161,
      "name": "Magyarsarlós",
      "lat": 45.991403,
      "lon": 18.26778,
      "reachable": false,
      "best_trip": null,
      "best_duration": null,
      "best_transfer_count": null,
      "time_slots": []
    },
    {
      "id": 162,
      "name": "Magyarszék",
      "lat": 46.258731,
      "lon": 18.12005,
      "reachable": false,
      "best_trip": null,
      "best_duration": null,
      "best_transfer_count": null,
      "time_slots": []
    },
    {
      "id": 163,
      "name": "Magyartelek",
      "lat": 45.923848,
      "lon": 17.91533,
      "reachable": false,
      "best_trip": null,
      "best_duration": null,
      "best_transfer_count": null,
      "time_slots": []
    },
    {
      "id": 164,
      "name": "Majs",
      "lat": 45.911413,
      "lon": 18.680508,
      "reachable": false,
      "best_trip": null,
      "best_duration": null,
      "best_transfer_count": null,
      "time_slots": []
    },
    {
      "id": 165,
      "name": "Markóc",
      "lat": 45.93754,
      "lon": 17.92472,
      "reachable": false,
      "best_trip": null,
      "best_duration": null,
      "best_transfer_count": null,
      "time_slots": []
    },
    {
      "id": 166,
      "name": "Martonfa",
      "lat": 46.088977,
      "lon": 18.412238,
      "reachable": false,
      "best_trip": null,
      "best_duration": null,
      "best_transfer_count": null,
      "time_slots": []
    },
    {
      "id": 167,
      "name": "Maráza",
      "lat": 45.997364,
      "lon": 18.559226,
      "reachable": false,
      "best_trip": null,
      "best_duration": null,
      "best_transfer_count": null,
      "time_slots": []
    },
    {
      "id": 168,
      "name": "Matty",
      "lat": 45.8428,
      "lon": 18.4264,
      "reachable": false,
      "best_trip": null,
      "best_duration": null,
      "best_transfer_count": null,
      "time_slots": []
    },
    {
      "id": 169,
      "name": "Mecseknádasd",
      "lat": 46.195621,
      "lon": 18.521649,
      "reachable": false,
      "best_trip": null,
      "best_duration": null,
      "best_transfer_count": null,
      "time_slots": []
    },
    {
      "id": 170,
      "name": "Mecsekpölöske",
      "lat": 46.20493,
      "lon": 18.259626,
      "reachable": false,
      "best_trip": null,
      "best_duration": null,
      "best_transfer_count": null,
      "time_slots": []
    },
    {
      "id": 171,
      "name": "Mekényes",
      "lat": 46.383104,
      "lon": 18.269557,
      "reachable": false,
      "best_trip": null,
      "best_duration": null,
      "best_transfer_count": null,
      "time_slots": []
    },
    {
      "id": 172,
      "name": "Merenye",
      "lat": 45.983747,
      "lon": 17.752827,
      "reachable": false,
      "best_trip": null,
      "best_duration": null,
      "best_transfer_count": null,
      "time_slots": []
    },
    {
      "id": 173,
      "name": "Meződ",
      "lat": 45.972322,
      "lon": 17.768156,
      "reachable": false,
      "best_trip": null,
      "best_duration": null,
      "best_transfer_count": null,
      "time_slots": []
    },
    {
      "id": 174,
      "name": "Mindszentgodisa",
      "lat": 46.2812,
      "lon": 18.231513,
      "reachable": false,
      "best_trip": null,
      "best_duration": null,
      "best_transfer_count": null,
      "time_slots": []
    },
    {
      "id": 175,
      "name": "Mohács",
      "lat": 45.990314,
      "lon": 18.68993,
      "reachable": true,
      "best_trip": {
        "departure_time": "05:50",
        "arrival_time": "07:05",
        "duration_minutes": 75,
        "transfer_count": 1
      },
      "best_duration": 75,
      "best_transfer_count": 1,
      "time_slots": [
        {
          "departure_time": "05:50",
          "arrival_time": "07:05",
          "duration_minutes": 75,
          "transfer_count": 1
        },
        null,
        null,
        null,
        null,
        null
      ]
    },
    {
      "id": 176,
      "name": "Molvány",
      "lat": 45.972689,
      "lon": 17.871789,
      "reachable": false,
      "best_trip": null,
      "best_duration": null,
      "best_transfer_count": null,
      "time_slots": []
    },
    {
      "id": 177,
      "name": "Monyoród",
      "lat": 45.908244,
      "lon": 18.438475,
      "reachable": false,
      "best_trip": null,
      "best_duration": null,
      "best_transfer_count": null,
      "time_slots": []
    },
    {
      "id": 178,
      "name": "Mozsgó",
      "lat": 45.964727,
      "lon": 17.80963,
      "reachable": false,
      "best_trip": null,
      "best_duration": null,
      "best_transfer_count": null,
      "time_slots": []
    },
    {
      "id": 179,
      "name": "Mágocs",
      "lat": 46.358778,
      "lon": 18.235365,
      "reachable": false,
      "best_trip": null,
      "best_duration": null,
      "best_transfer_count": null,
      "time_slots": []
    },
    {
      "id": 180,
      "name": "Mánfa",
      "lat": 46.152114,
      "lon": 18.192118,
      "reachable": false,
      "best_trip": null,
      "best_duration": null,
      "best_transfer_count": null,
      "time_slots": []
    },
    {
      "id": 181,
      "name": "Márfa",
      "lat": 45.9525,
      "lon": 17.9285,
      "reachable": false,
      "best_trip": null,
      "best_duration": null,
      "best_transfer_count": null,
      "time_slots": []
    },
    {
      "id": 182,
      "name": "Máriakéménd",
      "lat": 45.9549,
      "lon": 18.4412,
      "reachable": false,
      "best_trip": null,
      "best_duration": null,
      "best_transfer_count": null,
      "time_slots": []
    },
    {
      "id": 183,
      "name": "Márok",
      "lat": 45.838811,
      "lon": 18.374187,
      "reachable": false,
      "best_trip": null,
      "best_duration": null,
      "best_transfer_count": null,
      "time_slots": []
    },
    {
      "id": 184,
      "name": "Máza",
      "lat": 46.252425,
      "lon": 18.353463,
      "reachable": false,
      "best_trip": null,
      "best_duration": null,
      "best_transfer_count": null,
      "time_slots": []
    },
    {
      "id": 185,
      "name": "Nagybudmér",
      "lat": 45.962155,
      "lon": 18.482529,
      "reachable": false,
      "best_trip": null,
      "best_duration": null,
      "best_transfer_count": null,
      "time_slots": []
    },
    {
      "id": 186,
      "name": "Nagycsány",
      "lat": 46.195812,
      "lon": 18.254561,
      "reachable": false,
      "best_trip": null,
      "best_duration": null,
      "best_transfer_count": null,
      "time_slots": []
    },
    {
      "id": 187,
      "name": "Nagydobsza",
      "lat": 45.982908,
      "lon": 17.697681,
      "reachable": false,
      "best_trip": null,
      "best_duration": null,
      "best_transfer_count": null,
      "time_slots": []
    },
    {
      "id": 188,
      "name": "Nagyhajmás",
      "lat": 46.332678,
      "lon": 18.22996,
      "reachable": false,
      "best_trip": null,
      "best_duration": null,
      "best_transfer_count": null,
      "time_slots": []
    },
    {
      "id": 189,
      "name": "Nagyharsány",
      "lat": 45.847347,
      "lon": 18.416563,
      "reachable": false,
      "best_trip": null,
      "best_duration": null,
      "best_transfer_count": null,
      "time_slots": []
    },
    {
      "id": 190,
      "name": "Nagykozár",
      "lat": 46.046833,
      "lon": 18.337692,
      "reachable": false,
      "best_trip": null,
      "best_duration": null,
      "best_transfer_count": null,
      "time_slots": []
    },
    {
      "id": 191,
      "name": "Nagynyárád",
      "lat": 45.9468,
      "lon": 18.5029,
      "reachable": false,
      "best_trip": null,
      "best_duration": null,
      "best_transfer_count": null,
      "time_slots": []
    },
    {
      "id": 192,
      "name": "Nagypall",
      "lat": 46.106796,
      "lon": 18.406585,
      "reachable": false,
      "best_trip": null,
      "best_duration": null,
      "best_transfer_count": null,
      "time_slots": []
    },
    {
      "id": 193,
      "name": "Nagypeterd",
      "lat": 45.975421,
      "lon": 17.913813,
      "reachable": false,
      "best_trip": null,
      "best_duration": null,
      "best_transfer_count": null,
      "time_slots": []
    },
    {
      "id": 194,
      "name": "Nagytótfalu",
      "lat": 45.871729,
      "lon": 18.541476,
      "reachable": false,
      "best_trip": null,
      "best_duration": null,
      "best_transfer_count": null,
      "time_slots": []
    },
    {
      "id": 195,
      "name": "Nagyváty",
      "lat": 45.971118,
      "lon": 17.944842,
      "reachable": false,
      "best_trip": null,
      "best_duration": null,
      "best_transfer_count": null,
      "time_slots": []
    },
    {
      "id": 196,
      "name": "Nemeske",
      "lat": 45.922358,
      "lon": 17.809113,
      "reachable": false,
      "best_trip": null,
      "best_duration": null,
      "best_transfer_count": null,
      "time_slots": []
    },
    {
      "id": 197,
      "name": "Nyugotszenterzsébet",
      "lat": 45.888597,
      "lon": 17.815643,
      "reachable": false,
      "best_trip": null,
      "best_duration": null,
      "best_transfer_count": null,
      "time_slots": []
    },
    {
      "id": 198,
      "name": "Okorvölgy",
      "lat": 45.995493,
      "lon": 17.845683,
      "reachable": false,
      "best_trip": null,
      "best_duration": null,
      "best_transfer_count": null,
      "time_slots": []
    },
    {
      "id": 199,
      "name": "Okorág",
      "lat": 45.956465,
      "lon": 17.849986,
      "reachable": false,
      "best_trip": null,
      "best_duration": null,
      "best_transfer_count": null,
      "time_slots": []
    },
    {
      "id": 200,
      "name": "Olasz",
      "lat": 45.976173,
      "lon": 18.323611,
      "reachable": false,
      "best_trip": null,
      "best_duration": null,
      "best_transfer_count": null,
      "time_slots": []
    },
    {
      "id": 201,
      "name": "Old",
      "lat": 45.911243,
      "lon": 18.395696,
      "reachable": false,
      "best_trip": null,
      "best_duration": null,
      "best_transfer_count": null,
      "time_slots": []
    },
    {
      "id": 202,
      "name": "Orfű",
      "lat": 46.144594,
      "lon": 18.150558,
      "reachable": false,
      "best_trip": null,
      "best_duration": null,
      "best_transfer_count": null,
      "time_slots": []
    },
    {
      "id": 203,
      "name": "Oroszló",
      "lat": 46.222747,
      "lon": 18.162985,
      "reachable": false,
      "best_trip": null,
      "best_duration": null,
      "best_transfer_count": null,
      "time_slots": []
    },
    {
      "id": 204,
      "name": "Palkonya",
      "lat": 45.870279,
      "lon": 18.389425,
      "reachable": false,
      "best_trip": null,
      "best_duration": null,
      "best_transfer_count": null,
      "time_slots": []
    },
    {
      "id": 205,
      "name": "Palotabozsok",
      "lat": 46.011882,
      "lon": 18.582462,
      "reachable": false,
      "best_trip": null,
      "best_duration": null,
      "best_transfer_count": null,
      "time_slots": []
    },
    {
      "id": 206,
      "name": "Patapoklosi",
      "lat": 45.981918,
      "lon": 17.834311,
      "reachable": false,
      "best_trip": null,
      "best_duration": null,
      "best_transfer_count": null,
      "time_slots": []
    },
    {
      "id": 207,
      "name": "Pellérd",
      "lat": 45.989623,
      "lon": 18.162188,
      "reachable": false,
      "best_trip": null,
      "best_duration": null,
      "best_transfer_count": null,
      "time_slots": []
    },
    {
      "id": 208,
      "name": "Peterd",
      "lat": 45.989553,
      "lon": 17.989935,
      "reachable": false,
      "best_trip": null,
      "best_duration": null,
      "best_transfer_count": null,
      "time_slots": []
    },
    {
      "id": 209,
      "name": "Piskó",
      "lat": 45.861094,
      "lon": 17.855951,
      "reachable": false,
      "best_trip": null,
      "best_duration": null,
      "best_transfer_count": null,
      "time_slots": []
    },
    {
      "id": 210,
      "name": "Pogány",
      "lat": 45.975707,
      "lon": 18.261432,
      "reachable": false,
      "best_trip": null,
      "best_duration": null,
      "best_transfer_count": null,
      "time_slots": []
    },
    {
      "id": 211,
      "name": "Páprád",
      "lat": 45.953705,
      "lon": 17.893857,
      "reachable": false,
      "best_trip": null,
      "best_duration": null,
      "best_transfer_count": null,
      "time_slots": []
    },
    {
      "id": 212,
      "name": "Pécs",
      "lat": 46.072734,
      "lon": 18.232266,
      "reachable": true,
      "best_trip": {
        "departure_time": "06:59",
        "arrival_time": "07:00",
        "duration_minutes": 1,
        "transfer_count": 0
      },
      "best_duration": 1,
      "best_transfer_count": 0,
      "time_slots": [
        {
          "departure_time": "06:59",
          "arrival_time": "07:00",
          "duration_minutes": 1,
          "transfer_count": 0
        },
        null,
        null,
        null,
        null,
        null
      ]
    },
    {
      "id": 213,
      "name": "Pécsbagota",
      "lat": 45.973368,
      "lon": 18.230289,
      "reachable": false,
      "best_trip": null,
      "best_duration": null,
      "best_transfer_count": null,
      "time_slots": []
    },
    {
      "id": 214,
      "name": "Pécsdevecser",
      "lat": 45.985611,
      "lon": 18.24303,
      "reachable": false,
      "best_trip": null,
      "best_duration": null,
      "best_transfer_count": null,
      "time_slots": []
    },
    {
      "id": 215,
      "name": "Pécsudvard",
      "lat": 45.995278,
      "lon": 18.268325,
      "reachable": false,
      "best_trip": null,
      "best_duration": null,
      "best_transfer_count": null,
      "time_slots": []
    },
    {
      "id": 216,
      "name": "Pécsvárad",
      "lat": 46.154459,
      "lon": 18.420241,
      "reachable": true,
      "best_trip": {
        "departure_time": "06:40",
        "arrival_time": "07:20",
        "duration_minutes": 40,
        "transfer_count": 0
      },
      "best_duration": 40,
      "best_transfer_count": 0,
      "time_slots": [
        {
          "departure_time": "06:40",
          "arrival_time": "07:20",
          "duration_minutes": 40,
          "transfer_count": 0
        },
        null,
        null,
        null,
        null,
        null
      ]
    },
    {
      "id": 217,
      "name": "Pócsa",
      "lat": 45.935223,
      "lon": 18.31511,
      "reachable": false,
      "best_trip": null,
      "best_duration": null,
      "best_transfer_count": null,
      "time_slots": []
    },
    {
      "id": 218,
      "name": "Regenye",
      "lat": 46.073888,
      "lon": 17.903514,
      "reachable": false,
      "best_trip": null,
      "best_duration": null,
      "best_transfer_count": null,
      "time_slots": []
    },
    {
      "id": 219,
      "name": "Romonya",
      "lat": 45.992707,
      "lon": 18.188268,
      "reachable": false,
      "best_trip": null,
      "best_duration": null,
      "best_transfer_count": null,
      "time_slots": []
    },
    {
      "id": 220,
      "name": "Rádfalva",
      "lat": 45.91928,
      "lon": 18.117144,
      "reachable": false,
      "best_trip": null,
      "best_duration": null,
      "best_transfer_count": null,
      "time_slots": []
    },
    {
      "id": 221,
      "name": "Rózsafa",
      "lat": 45.936884,
      "lon": 17.954372,
      "reachable": false,
      "best_trip": null,
      "best_duration": null,
      "best_transfer_count": null,
      "time_slots": []
    },
    {
      "id": 222,
      "name": "Selce",
      "lat": 45.986104,
      "lon": 18.47297,
      "reachable": false,
      "best_trip": null,
      "best_duration": null,
      "best_transfer_count": null,
      "time_slots": []
    },
    {
      "id": 223,
      "name": "Sellye",
      "lat": 45.872248,
      "lon": 17.843274,
      "reachable": false,
      "best_trip": null,
      "best_duration": null,
      "best_transfer_count": null,
      "time_slots": []
    },
    {
      "id": 224,
      "name": "Siklós",
      "lat": 45.854355,
      "lon": 18.29703,
      "reachable": true,
      "best_trip": {
        "departure_time": "06:30",
        "arrival_time": "07:15",
        "duration_minutes": 45,
        "transfer_count": 0
      },
      "best_duration": 45,
      "best_transfer_count": 0,
      "time_slots": [
        {
          "departure_time": "06:30",
          "arrival_time": "07:15",
          "duration_minutes": 45,
          "transfer_count": 0
        },
        null,
        null,
        null,
        null,
        null
      ]
    },
    {
      "id": 225,
      "name": "Siklósbodony",
      "lat": 45.843706,
      "lon": 18.380926,
      "reachable": false,
      "best_trip": null,
      "best_duration": null,
      "best_transfer_count": null,
      "time_slots": []
    },
    {
      "id": 226,
      "name": "Siklósnagyfalu",
      "lat": 45.825777,
      "lon": 18.44614,
      "reachable": false,
      "best_trip": null,
      "best_duration": null,
      "best_transfer_count": null,
      "time_slots": []
    },
    {
      "id": 227,
      "name": "Somberek",
      "lat": 46.022327,
      "lon": 18.635892,
      "reachable": false,
      "best_trip": null,
      "best_duration": null,
      "best_transfer_count": null,
      "time_slots": []
    },
    {
      "id": 228,
      "name": "Somogyapáti",
      "lat": 45.962466,
      "lon": 17.76264,
      "reachable": false,
      "best_trip": null,
      "best_duration": null,
      "best_transfer_count": null,
      "time_slots": []
    },
    {
      "id": 229,
      "name": "Somogycsicsó",
      "lat": 45.9799,
      "lon": 17.7859,
      "reachable": false,
      "best_trip": null,
      "best_duration": null,
      "best_transfer_count": null,
      "time_slots": []
    },
    {
      "id": 230,
      "name": "Somogyhatvan",
      "lat": 45.97118,
      "lon": 17.829961,
      "reachable": false,
      "best_trip": null,
      "best_duration": null,
      "best_transfer_count": null,
      "time_slots": []
    },
    {
      "id": 231,
      "name": "Somogyhárságy",
      "lat": 45.931997,
      "lon": 17.886706,
      "reachable": false,
      "best_trip": null,
      "best_duration": null,
      "best_transfer_count": null,
      "time_slots": []
    },
    {
      "id": 232,
      "name": "Somogyviszló",
      "lat": 45.934155,
      "lon": 17.860764,
      "reachable": false,
      "best_trip": null,
      "best_duration": null,
      "best_transfer_count": null,
      "time_slots": []
    },
    {
      "id": 233,
      "name": "Sumony",
      "lat": 45.959741,
      "lon": 17.889418,
      "reachable": false,
      "best_trip": null,
      "best_duration": null,
      "best_transfer_count": null,
      "time_slots": []
    },
    {
      "id": 234,
      "name": "Szabadszentkirály",
      "lat": 45.985362,
      "lon": 18.174399,
      "reachable": false,
      "best_trip": null,
      "best_duration": null,
      "best_transfer_count": null,
      "time_slots": []
    },
    {
      "id": 235,
      "name": "Szajk",
      "lat": 45.997971,
      "lon": 18.593782,
      "reachable": false,
      "best_trip": null,
      "best_duration": null,
      "best_transfer_count": null,
      "time_slots": []
    },
    {
      "id": 236,
      "name": "Szalatnak",
      "lat": 46.255391,
      "lon": 18.303361,
      "reachable": false,
      "best_trip": null,
      "best_duration": null,
      "best_transfer_count": null,
      "time_slots": []
    },
    {
      "id": 237,
      "name": "Szalánta",
      "lat": 45.999144,
      "lon": 18.226206,
      "reachable": false,
      "best_trip": null,
      "best_duration": null,
      "best_transfer_count": null,
      "time_slots": []
    },
    {
      "id": 238,
      "name": "Szaporca",
      "lat": 45.840229,
      "lon": 17.928503,
      "reachable": false,
      "best_trip": null,
      "best_duration": null,
      "best_transfer_count": null,
      "time_slots": []
    },
    {
      "id": 239,
      "name": "Szarvasd",
      "lat": 46.1893,
      "lon": 18.3996,
      "reachable": false,
      "best_trip": null,
      "best_duration": null,
      "best_transfer_count": null,
      "time_slots": []
    },
    {
      "id": 240,
      "name": "Szava",
      "lat": 45.949786,
      "lon": 18.038432,
      "reachable": false,
      "best_trip": null,
      "best_duration": null,
      "best_transfer_count": null,
      "time_slots": []
    },
    {
      "id": 241,
      "name": "Szebény",
      "lat": 46.045596,
      "lon": 18.657643,
      "reachable": false,
      "best_trip": null,
      "best_duration": null,
      "best_transfer_count": null,
      "time_slots": []
    },
    {
      "id": 242,
      "name": "Szederkény",
      "lat": 45.986465,
      "lon": 18.562384,
      "reachable": false,
      "best_trip": null,
      "best_duration": null,
      "best_transfer_count": null,
      "time_slots": []
    },
    {
      "id": 243,
      "name": "Szellő",
      "lat": 46.094378,
      "lon": 18.325238,
      "reachable": false,
      "best_trip": null,
      "best_duration": null,
      "best_transfer_count": null,
      "time_slots": []
    },
    {
      "id": 244,
      "name": "Szemely",
      "lat": 46.005904,
      "lon": 18.314798,
      "reachable": false,
      "best_trip": null,
      "best_duration": null,
      "best_transfer_count": null,
      "time_slots": []
    },
    {
      "id": 245,
      "name": "Szentborbás",
      "lat": 45.9089,
      "lon": 17.9344,
      "reachable": false,
      "best_trip": null,
      "best_duration": null,
      "best_transfer_count": null,
      "time_slots": []
    },
    {
      "id": 246,
      "name": "Szentdénes",
      "lat": 45.984191,
      "lon": 17.973188,
      "reachable": false,
      "best_trip": null,
      "best_duration": null,
      "best_transfer_count": null,
      "time_slots": []
    },
    {
      "id": 247,
      "name": "Szentegát",
      "lat": 45.943102,
      "lon": 17.9763,
      "reachable": false,
      "best_trip": null,
      "best_duration": null,
      "best_transfer_count": null,
      "time_slots": []
    },
    {
      "id": 248,
      "name": "Szentkatalin",
      "lat": 46.21397,
      "lon": 18.332652,
      "reachable": false,
      "best_trip": null,
      "best_duration": null,
      "best_transfer_count": null,
      "time_slots": []
    },
    {
      "id": 249,
      "name": "Szentlászló",
      "lat": 46.035933,
      "lon": 18.06263,
      "reachable": false,
      "best_trip": null,
      "best_duration": null,
      "best_transfer_count": null,
      "time_slots": []
    },
    {
      "id": 250,
      "name": "Szentlőrinc",
      "lat": 46.043777,
      "lon": 17.987942,
      "reachable": true,
      "best_trip": {
        "departure_time": "06:45",
        "arrival_time": "07:10",
        "duration_minutes": 25,
        "transfer_count": 0
      },
      "best_duration": 25,
      "best_transfer_count": 0,
      "time_slots": [
        {
          "departure_time": "06:45",
          "arrival_time": "07:10",
          "duration_minutes": 25,
          "transfer_count": 0
        },
        null,
        null,
        null,
        null,
        null
      ]
    },
    {
      "id": 251,
      "name": "Szigetvár",
      "lat": 46.048338,
      "lon": 17.806499,
      "reachable": true,
      "best_trip": {
        "departure_time": "05:50",
        "arrival_time": "07:10",
        "duration_minutes": 80,
        "transfer_count": 1
      },
      "best_duration": 80,
      "best_transfer_count": 1,
      "time_slots": [
        {
          "departure_time": "05:50",
          "arrival_time": "07:10",
          "duration_minutes": 80,
          "transfer_count": 1
        },
        null,
        null,
        null,
        null,
        null
      ]
    },
    {
      "id": 252,
      "name": "Szilvás",
      "lat": 46.221032,
      "lon": 18.181027,
      "reachable": false,
      "best_trip": null,
      "best_duration": null,
      "best_transfer_count": null,
      "time_slots": []
    },
    {
      "id": 253,
      "name": "Szilágy",
      "lat": 46.225021,
      "lon": 18.245179,
      "reachable": false,
      "best_trip": null,
      "best_duration": null,
      "best_transfer_count": null,
      "time_slots": []
    },
    {
      "id": 254,
      "name": "Szulimán",
      "lat": 45.995324,
      "lon": 17.922099,
      "reachable": false,
      "best_trip": null,
      "best_duration": null,
      "best_transfer_count": null,
      "time_slots": []
    },
    {
      "id": 255,
      "name": "Szágy",
      "lat": 45.890438,
      "lon": 17.904696,
      "reachable": false,
      "best_trip": null,
      "best_duration": null,
      "best_transfer_count": null,
      "time_slots": []
    },
    {
      "id": 256,
      "name": "Szárász",
      "lat": 46.2796,
      "lon": 18.2556,
      "reachable": false,
      "best_trip": null,
      "best_duration": null,
      "best_transfer_count": null,
      "time_slots": []
    },
    {
      "id": 257,
      "name": "Szászvár",
      "lat": 46.266972,
      "lon": 18.384047,
      "reachable": false,
      "best_trip": null,
      "best_duration": null,
      "best_transfer_count": null,
      "time_slots": []
    },
    {
      "id": 258,
      "name": "Székelyszabar",
      "lat": 45.924,
      "lon": 18.4048,
      "reachable": false,
      "best_trip": null,
      "best_duration": null,
      "best_transfer_count": null,
      "time_slots": []
    },
    {
      "id": 259,
      "name": "Szőke",
      "lat": 45.938154,
      "lon": 17.991739,
      "reachable": false,
      "best_trip": null,
      "best_duration": null,
      "best_transfer_count": null,
      "time_slots": []
    },
    {
      "id": 260,
      "name": "Szőkéd",
      "lat": 45.990545,
      "lon": 18.23897,
      "reachable": false,
      "best_trip": null,
      "best_duration": null,
      "best_transfer_count": null,
      "time_slots": []
    },
    {
      "id": 261,
      "name": "Szűr",
      "lat": 45.858698,
      "lon": 18.43861,
      "reachable": false,
      "best_trip": null,
      "best_duration": null,
      "best_transfer_count": null,
      "time_slots": []
    },
    {
      "id": 262,
      "name": "Sámod",
      "lat": 45.880301,
      "lon": 18.013196,
      "reachable": false,
      "best_trip": null,
      "best_duration": null,
      "best_transfer_count": null,
      "time_slots": []
    },
    {
      "id": 263,
      "name": "Sárok",
      "lat": 45.955206,
      "lon": 18.602912,
      "reachable": false,
      "best_trip": null,
      "best_duration": null,
      "best_transfer_count": null,
      "time_slots": []
    },
    {
      "id": 264,
      "name": "Sásd",
      "lat": 46.255241,
      "lon": 18.099727,
      "reachable": false,
      "best_trip": null,
      "best_duration": null,
      "best_transfer_count": null,
      "time_slots": []
    },
    {
      "id": 265,
      "name": "Sátorhely",
      "lat": 45.941411,
      "lon": 18.660905,
      "reachable": false,
      "best_trip": null,
      "best_duration": null,
      "best_transfer_count": null,
      "time_slots": []
    },
    {
      "id": 266,
      "name": "Sósvertike",
      "lat": 45.913557,
      "lon": 17.947609,
      "reachable": false,
      "best_trip": null,
      "best_duration": null,
      "best_transfer_count": null,
      "time_slots": []
    },
    {
      "id": 267,
      "name": "Tarrós",
      "lat": 45.9645,
      "lon": 17.8454,
      "reachable": false,
      "best_trip": null,
      "best_duration": null,
      "best_transfer_count": null,
      "time_slots": []
    },
    {
      "id": 268,
      "name": "Tekeres",
      "lat": 46.276089,
      "lon": 18.145576,
      "reachable": false,
      "best_trip": null,
      "best_duration": null,
      "best_transfer_count": null,
      "time_slots": []
    },
    {
      "id": 269,
      "name": "Teklafalu",
      "lat": 45.964984,
      "lon": 17.736257,
      "reachable": false,
      "best_trip": null,
      "best_duration": null,
      "best_transfer_count": null,
      "time_slots": []
    },
    {
      "id": 270,
      "name": "Tengeri",
      "lat": 45.947021,
      "lon": 17.781468,
      "reachable": false,
      "best_trip": null,
      "best_duration": null,
      "best_transfer_count": null,
      "time_slots": []
    },
    {
      "id": 271,
      "name": "Tékes",
      "lat": 46.291389,
      "lon": 18.181997,
      "reachable": false,
      "best_trip": null,
      "best_duration": null,
      "best_transfer_count": null,
      "time_slots": []
    },
    {
      "id": 272,
      "name": "Tésenfa",
      "lat": 45.826768,
      "lon": 18.093751,
      "reachable": false,
      "best_trip": null,
      "best_duration": null,
      "best_transfer_count": null,
      "time_slots": []
    },
    {
      "id": 273,
      "name": "Téseny",
      "lat": 45.954604,
      "lon": 17.951104,
      "reachable": false,
      "best_trip": null,
      "best_duration": null,
      "best_transfer_count": null,
      "time_slots": []
    },
    {
      "id": 274,
      "name": "Tófű",
      "lat": 46.016286,
      "lon": 18.046176,
      "reachable": false,
      "best_trip": null,
      "best_duration": null,
      "best_transfer_count": null,
      "time_slots": []
    },
    {
      "id": 275,
      "name": "Tótszentgyörgy",
      "lat": 45.840417,
      "lon": 17.979203,
      "reachable": false,
      "best_trip": null,
      "best_duration": null,
      "best_transfer_count": null,
      "time_slots": []
    },
    {
      "id": 276,
      "name": "Töttös",
      "lat": 45.895846,
      "lon": 18.663003,
      "reachable": false,
      "best_trip": null,
      "best_duration": null,
      "best_transfer_count": null,
      "time_slots": []
    },
    {
      "id": 277,
      "name": "Túrony",
      "lat": 45.939079,
      "lon": 18.340254,
      "reachable": false,
      "best_trip": null,
      "best_duration": null,
      "best_transfer_count": null,
      "time_slots": []
    },
    {
      "id": 278,
      "name": "Vajszló",
      "lat": 45.853515,
      "lon": 17.914384,
      "reachable": false,
      "best_trip": null,
      "best_duration": null,
      "best_transfer_count": null,
      "time_slots": []
    },
    {
      "id": 279,
      "name": "Varga",
      "lat": 45.986654,
      "lon": 17.897131,
      "reachable": false,
      "best_trip": null,
      "best_duration": null,
      "best_transfer_count": null,
      "time_slots": []
    },
    {
      "id": 280,
      "name": "Vejti",
      "lat": 45.856223,
      "lon": 17.946032,
      "reachable": false,
      "best_trip": null,
      "best_duration": null,
      "best_transfer_count": null,
      "time_slots": []
    },
    {
      "id": 281,
      "name": "Versend",
      "lat": 45.990153,
      "lon": 18.576658,
      "reachable": false,
      "best_trip": null,
      "best_duration": null,
      "best_transfer_count": null,
      "time_slots": []
    },
    {
      "id": 282,
      "name": "Villány",
      "lat": 45.868132,
      "lon": 18.450131,
      "reachable": false,
      "best_trip": null,
      "best_duration": null,
      "best_transfer_count": null,
      "time_slots": []
    },
    {
      "id": 283,
      "name": "Villánykövesd",
      "lat": 45.880823,
      "lon": 18.468388,
      "reachable": false,
      "best_trip": null,
      "best_duration": null,
      "best_transfer_count": null,
      "time_slots": []
    },
    {
      "id": 284,
      "name": "Vokány",
      "lat": 45.940866,
      "lon": 18.390297,
      "reachable": false,
      "best_trip": null,
      "best_duration": null,
      "best_transfer_count": null,
      "time_slots": []
    },
    {
      "id": 285,
      "name": "Várad",
      "lat": 45.8728,
      "lon": 17.9659,
      "reachable": false,
      "best_trip": null,
      "best_duration": null,
      "best_transfer_count": null,
      "time_slots": []
    },
    {
      "id": 286,
      "name": "Vásárosbéc",
      "lat": 45.872917,
      "lon": 17.852361,
      "reachable": false,
      "best_trip": null,
      "best_duration": null,
      "best_transfer_count": null,
      "time_slots": []
    },
    {
      "id": 287,
      "name": "Vásárosdombó",
      "lat": 46.20976,
      "lon": 18.231638,
      "reachable": false,
      "best_trip": null,
      "best_duration": null,
      "best_transfer_count": null,
      "time_slots": []
    },
    {
      "id": 288,
      "name": "Vázsnok",
      "lat": 45.990262,
      "lon": 17.93154,
      "reachable": false,
      "best_trip": null,
      "best_duration": null,
      "best_transfer_count": null,
      "time_slots": []
    },
    {
      "id": 289,
      "name": "Vékény",
      "lat": 46.2473,
      "lon": 18.3167,
      "reachable": false,
      "best_trip": null,
      "best_duration": null,
      "best_transfer_count": null,
      "time_slots": []
    },
    {
      "id": 290,
      "name": "Véménd",
      "lat": 46.041811,
      "lon": 18.558046,
      "reachable": false,
      "best_trip": null,
      "best_duration": null,
      "best_transfer_count": null,
      "time_slots": []
    },
    {
      "id": 291,
      "name": "Zaláta",
      "lat": 45.852265,
      "lon": 17.913892,
      "reachable": false,
      "best_trip": null,
      "best_duration": null,
      "best_transfer_count": null,
      "time_slots": []
    },
    {
      "id": 292,
      "name": "Zengővárkony",
      "lat": 46.167257,
      "lon": 18.418264,
      "reachable": false,
      "best_trip": null,
      "best_duration": null,
      "best_transfer_count": null,
      "time_slots": []
    },
    {
      "id": 293,
      "name": "Zsibrik",
      "lat": 46.178771,
      "lon": 18.467034,
      "reachable": false,
      "best_trip": null,
      "best_duration": null,
      "best_transfer_count": null,
      "time_slots": []
    },
    {
      "id": 294,
      "name": "Zádor",
      "lat": 45.940948,
      "lon": 17.984882,
      "reachable": false,
      "best_trip": null,
      "best_duration": null,
      "best_transfer_count": null,
      "time_slots": []
    },
    {
      "id": 295,
      "name": "Zók",
      "lat": 46.049423,
      "lon": 18.225782,
      "reachable": false,
      "best_trip": null,
      "best_duration": null,
      "best_transfer_count": null,
      "time_slots": []
    },
    {
      "id": 296,
      "name": "Ág",
      "lat": 45.9721,
      "lon": 17.78,
      "reachable": false,
      "best_trip": null,
      "best_duration": null,
      "best_transfer_count": null,
      "time_slots": []
    },
    {
      "id": 297,
      "name": "Áta",
      "lat": 45.910562,
      "lon": 18.277044,
      "reachable": false,
      "best_trip": null,
      "best_duration": null,
      "best_transfer_count": null,
      "time_slots": []
    },
    {
      "id": 298,
      "name": "Óbánya",
      "lat": 46.211408,
      "lon": 18.428706,
      "reachable": false,
      "best_trip": null,
      "best_duration": null,
      "best_transfer_count": null,
      "time_slots": []
    },
    {
      "id": 299,
      "name": "Ócsárd",
      "lat": 45.957985,
      "lon": 18.172474,
      "reachable": false,
      "best_trip": null,
      "best_duration": null,
      "best_transfer_count": null,
      "time_slots": []
    },
    {
      "id": 300,
      "name": "Ófalu",
      "lat": 46.205562,
      "lon": 18.711773,
      "reachable": false,
      "best_trip": null,
      "best_duration": null,
      "best_transfer_count": null,
      "time_slots": []
    },
    {
      "id": 301,
      "name": "Újpetre",
      "lat": 45.940063,
      "lon": 18.414417,
      "reachable": false,
      "best_trip": null,
      "best_duration": null,
      "best_transfer_count": null,
      "time_slots": []
    }
  ]
}